     3.05           OBSERVATION DATA    M: Mixed            RINEX VERSION / TYPE
                                        20230802 191051 UTC PGM / RUN BY / DATE 
0000                                                        MARKER NAME         
                                                            MARKER NUMBER       
                                                            MARKER TYPE         
                                                            OBSERVER / AGENCY   
                                                            REC # / TYPE / VERS 
                                                            ANT # / TYPE        
   935772.7134 -5133991.2270  3655036.9479                  APPROX POSITION XYZ 
        0.0000        0.0000        0.0000                  ANTENNA: DELTA H/E/N
G    8 C1C L1C D1C S1C C2W L2W D2W S2W                      SYS / # / OBS TYPES 
R    8 C1C L1C D1C S1C C2P L2P D2P S2P                      SYS / # / OBS TYPES 
E    8 C1C L1C D1C S1C C7Q L7Q D7Q S7Q                      SYS / # / OBS TYPES 
C    8 C2I L2I D2I S2I C7I L7I D7I S7I                      SYS / # / OBS TYPES 
  2023     8     2    19     9   18.0000000     GPS         TIME OF FIRST OBS   
  2023     8     2    19    31   34.2000000     GPS         TIME OF LAST OBS    
G                                                           SYS / PHASE SHIFT   
R                                                           SYS / PHASE SHIFT   
E                                                           SYS / PHASE SHIFT   
C                                                           SYS / PHASE SHIFT   
  0                                                         GLONASS SLOT / FRQ #
 C1C    0.000 C1P    0.000 C2C    0.000 C2P    0.000        GLONASS COD/PHS/BIS 
                                                            END OF HEADER       
                                                                                                                                                                                                                                                                                                                                                                                                                                                                                                                                                                                                                                                                                                                                                                                                                                                                                                                                                                                                                                                                                                                                                                                                                                                                                                                                                                                                                                                                                                                                                                                                                                                                                                                                                                                                                                                                                                                                                                                                                                                                                                                                                                                                                                                                                                                        
> 2023  8  2 19 30 58.0000000  0 28                     
G 5  23656556.038   124316043.016        2444.955          41.000    23656554.806    96869645.930        1905.326          38.000  
G10  24368703.648   128058408.386       -2328.427          43.000    24368704.917    99785739.114       -1814.546          39.000  
G13  22484410.388   118156386.290        3173.297          41.000    22484407.010    92069908.377        2472.703          31.000  
G15  20291447.535   106632275.901        1640.829          46.000    20291444.390    83090084.306        1278.589          43.000  
G18  20497675.912   107716016.728       -1174.452          46.000    20497672.374    83934560.083        -915.162          45.000  
G23  21639918.665   113718552.465       -1595.397          45.000    21639915.645    88611861.161       -1243.185          43.000  
G24  21904216.060   115107451.646       -2676.617          45.000    21904218.972    89694124.530       -2085.689          43.000  
G27  24703829.740   129819507.860       -1778.083          41.000    24703830.545   101158054.501       -1385.537          37.000  
G29  23496056.242   123472606.411        3389.255          41.000    23496059.798    96212412.405        2640.816          39.000  
R 2  23884354.060   127451511.192        3282.566          40.000    23884359.171    99128952.452        2552.943          38.000  
R 3  20272239.032   108518880.054        1944.249          49.000    20272239.515    84403570.762        1512.252          48.000  
R 4  20188828.899   108110267.099        -946.563          50.000    20188830.757    84085764.392        -736.123          48.000  
R 5  23617331.925   126248174.839       -2913.225          44.000    23617341.806    98193076.344       -2265.710          40.000  
R12  23882886.048   127578106.914        -496.723          42.000    23882893.625    99227412.398        -386.372          40.000  
R17  22682316.840   121377697.986        4362.971          42.000    22682332.439    94404855.743        3393.427          44.000  
R18  19527322.404   104238173.353        1864.901          49.000    19527324.352    81074129.306        1450.542          46.000  
R19  19943493.825   106684239.865       -1896.853          37.000    19943498.650    82976658.700       -1475.407          44.000  
E 3  24515807.449   128831463.891       -1700.897          45.000    24515809.022    98715003.080       -1303.372          43.000  
E 5  23417197.653   123058199.690         792.697          46.000    23417198.439    94291347.983         607.339          44.000  
E 9  26831554.059   141000788.695        2564.978          39.000    26831557.758   108039569.233        1965.258          40.000  
E15  25617539.608   134621080.511       -2360.050          45.000    25617543.021   103151226.205       -1808.409          42.000  
C14  25249419.597   131480354.489        2405.499          37.000    25249415.345   101668950.101        1859.948          42.000  
C24  25631930.890   133472190.483        -858.157          40.000                                                                  
C25  25511861.420   132846990.389       -2471.204          42.000                                                                  
C27  22506357.979   117196514.060        -451.221          46.000                                                                  
C28  22718584.398   118301614.911        2319.590          48.000                                                                  
C30  25831651.316   134512190.122       -2660.837          43.000                                                                  
C32  25225507.968   131355786.291       -2101.613          41.000                                                                  
> 2023  8  2 19 30 58.2000000  0 28                     
G 5  23656649.047   124316531.692        2444.764          42.000    23656647.724    96870026.703        1905.013          38.000  
G10  24368614.964   128057942.369       -2328.763          43.000    24368616.197    99785376.009       -1814.562          39.000  
G13  22484531.075   118157020.630        3173.012          41.000    22484527.626    92070402.642        2472.479          31.000  
G15  20291509.916   106632603.778        1640.734          46.000    20291507.003    83090339.783        1278.466          43.000  
G18  20497631.115   107715781.550       -1174.536          46.000    20497627.452    83934376.836        -915.179          45.000  
G23  21639857.892   113718233.057       -1595.682          45.000    21639854.944    88611612.282       -1243.408          43.000  
G24  21904114.135   115106916.024       -2676.829          46.000    21904116.976    89693707.160       -2085.857          43.000  
G27  24703762.053   129819151.982       -1778.021          41.000    24703763.053   101157777.198       -1385.499          37.000  
G29  23496185.095   123473283.963        3389.098          41.000    23496188.902    96212940.377        2640.799          39.000  
R 2  23884476.999   127452167.364        3282.119          39.000    23884482.127    99129462.782        2552.764          38.000  
R 3  20272311.670   108519268.608        1944.076          49.000    20272312.081    84403872.950        1511.989          48.000  
R 4  20188793.590   108110077.502        -946.635          50.000    20188795.466    84085616.907        -736.347          48.000  
R 5  23617222.763   126247591.897       -2913.382          43.000    23617232.555    98192622.929       -2266.001          40.000  
R12  23882867.590   127578007.285        -496.840          42.000    23882875.077    99227334.893        -386.461          40.000  
R17  22682479.984   121378570.257        4362.663          43.000    22682495.190    94405534.164        3393.108          44.000  
R18  19527392.254   104238546.042        1864.840          49.000    19527394.202    81074419.160        1450.324          46.000  
R19  19943422.957   106683860.157       -1897.099          37.000    19943427.692    82976363.388       -1475.474          44.000  
E 3  24515742.746   128831123.401       -1701.042          45.000    24515744.264    98714742.180       -1303.500          43.000  
E 5  23417227.780   123058357.922         792.558          46.000    23417228.530    94291469.237         607.194          44.000  
E 9  26831651.660   141001301.358        2564.799          39.000    26831655.358   108039962.053        1965.084          40.000  
E15  25617449.744   134620608.177       -2360.245          45.000    25617453.139   103150864.284       -1808.644          42.000  
C14  25249511.998   131480835.274        2405.287          37.000    25249507.656   101669321.859        1859.718          42.000  
C24  25631897.850   133472018.558        -858.308          40.000                                                                  
C25  25511766.535   132846495.809       -2471.590          42.000                                                                  
C27  22506340.557   117196423.529        -451.299          46.000                                                                  
C28  22718673.457   118302078.558        2319.529          48.000                                                                  
C30  25831549.123   134511657.680       -2660.876          43.000                                                                  
C32  25225427.218   131355365.665       -2101.870          41.000                                                                  
> 2023  8  2 19 30 58.4000000  0 28                     
G 5  23656742.716   124317023.893        2445.055          42.000    23656741.358    96870410.257        1905.315          38.000  
G10  24368526.924   128057479.871       -2328.500          44.000    24368528.192    99785015.642       -1814.233          39.000  
G13  22484652.459   118157658.482        3173.359          41.000    22484649.100    92070899.693        2472.748          31.000  
G15  20291572.940   106632935.145        1640.862          46.000    20291570.063    83090598.000        1278.617          43.000  
G18  20497586.978   107715549.875       -1174.356          46.000    20497583.333    83934196.308        -915.106          45.000  
G23  21639797.745   113717917.160       -1595.536          45.000    21639794.975    88611366.134       -1243.218          43.000  
G24  21904012.925   115106383.906       -2676.562          46.000    21904015.748    89693292.515       -2085.695          43.000  
G27  24703694.901   129818799.614       -1777.747          41.000    24703695.848   101157502.632       -1385.258          37.000  
G29  23496314.610   123473965.017        3389.271          41.000    23496318.559    96213471.066        2641.028          39.000  
R 2  23884600.349   127452827.078        3282.543          39.000    23884605.781    99129975.921        2552.999          38.000  
R 3  20272385.004   108519660.728        1944.322          49.000    20272385.326    84404177.939        1512.190          48.000  
R 4  20188758.942   108109891.479        -946.328          50.000    20188760.782    84085472.232        -736.100          48.000  
R 5  23617114.280   126247012.553       -2912.929          43.000    23617123.983    98192172.327       -2265.755          40.000  
R12  23882849.881   127577911.235        -496.432          42.000    23882857.208    99227260.199        -386.126          40.000  
R17  22682643.771   121379446.116        4363.088          44.000    22682658.495    94406215.383        3393.404          44.000  
R18  19527462.712   104238922.304        1865.164          49.000    19527464.677    81074711.804        1450.542          46.000  
R19  19943352.696   106683484.051       -1896.746          37.000    19943357.413    82976070.856       -1475.256          44.000  
E 3  24515678.685   128830786.409       -1701.042          45.000    24515680.115    98714483.972       -1303.299          43.000  
E 5  23417258.532   123058519.630         792.468          46.000    23417259.283    94291593.141         607.328          45.000  
E 9  26831749.886   141001817.530        2564.726          39.000    26831753.584   108040357.553        1965.308          40.000  
E15  25617360.542   134620139.360       -2360.200          45.000    25617363.901   103150505.054       -1808.370          42.000  
C14  25249604.953   131481319.494        2405.287          37.000    25249600.575   101669696.322        1860.048          42.000  
C24  25631865.507   133471850.102        -858.129          40.000                                                                  
C25  25511672.276   132846004.715       -2471.316          42.000                                                                  
C27  22506323.814   117196336.482        -451.004          46.000                                                                  
C28  22718763.160   118302545.671        2319.785          48.000                                                                  
C30  25831447.591   134511128.710       -2660.629          43.000                                                                  
C32  25225347.093   131354948.519       -2101.518          41.000                                                                  
> 2023  8  2 19 30 58.6000000  0 28                     
G 5  23656835.671   124317512.523        2444.692          41.000    23656834.527    96870790.977        1904.712          38.000  
G10  24368438.222   128057013.857       -2328.679          44.000    24368439.598    99784652.489       -1814.590          39.000  
G13  22484773.093   118158292.778        3172.957          41.000    22484769.716    92071393.949        2472.435          31.000  
G15  20291635.374   106633262.996        1640.722          46.000    20291632.426    83090853.471        1278.427          43.000  
G18  20497542.216   107715314.691       -1174.446          46.000    20497538.571    83934013.048        -915.151          45.000  
G23  21639736.901   113717597.743       -1595.654          45.000    21639734.185    88611117.225       -1243.408          42.000  
G24  21903911.036   115105848.293       -2676.578          46.000    21903913.859    89692875.159       -2085.678          43.000  
G27  24703627.088   129818443.730       -1777.943          41.000    24703627.874   101157225.297       -1385.565          37.000  
G29  23496443.410   123474642.554        3389.215          41.000    23496447.663    96213999.004        2640.894          39.000  
R 2  23884723.091   127453483.205        3281.973          39.000    23884728.916    99130486.232        2552.552          38.000  
R 3  20272457.660   108520049.254        1944.076          49.000    20272457.928    84404480.126        1512.017          48.000  
R 4  20188723.615   108109701.868        -946.535          50.000    20188725.419    84085324.764        -736.207          48.000  
R 5  23617005.261   126246429.608       -2913.125          43.000    23617014.821    98191718.965       -2265.576          40.000  
R12  23882831.441   127577811.627        -496.617          42.000    23882838.535    99227182.733        -386.199          40.000  
R17  22682807.076   121380318.386        4362.920          44.000    22682821.300    94406893.809        3393.276          44.000  
R18  19527532.544   104239295.022        1865.180          49.000    19527534.491    81075001.701        1450.626          46.000  
R19  19943281.630   106683104.406       -1896.634          37.000    19943286.348    82975775.555       -1475.334          43.000  
E 3  24515613.928   128830445.914       -1701.003          45.000    24515615.339    98714223.075       -1303.293          43.000  
E 5  23417288.642   123058677.847         792.479          46.000    23417289.356    94291714.370         607.283          44.000  
E 9  26831847.450   141002330.158        2564.598          39.000    26831851.221   108040750.375        1965.258          40.000  
E15  25617270.661   134619667.020       -2360.234          45.000    25617274.038   103150143.122       -1808.577          41.000  
C14  25249697.354   131481800.239        2405.096          37.000    25249692.904   101670068.040        1859.718          42.000  
C24  25631832.557   133471678.177        -858.269          40.000                                                                  
C25  25511577.374   132845510.132       -2471.495          42.000                                                                  
C27  22506306.427   117196245.940        -451.188          46.000                                                                  
C28  22718852.219   118303009.315        2319.758          48.000                                                                  
C30  25831345.362   134510596.253       -2660.814          43.000                                                                  
C32  25225266.254   131354527.895       -2101.707          41.000                                                                  
> 2023  8  2 19 30 58.8000000  0 28                     
G 5  23656928.661   124318001.361        2444.692          41.000    23656927.625    96871171.922        1905.187          38.000  
G10  24368349.591   128056548.022       -2328.640          44.000    24368350.735    99784289.517       -1814.389          38.000  
G13  22484893.834   118158927.282        3173.079          41.000    22484890.403    92071888.363        2472.530          31.000  
G15  20291697.809   106633591.085        1641.046          45.000    20291694.932    83091109.136        1278.784          43.000  
G18  20497497.455   107715079.741       -1174.038          46.000    20497493.774    83933829.984        -914.721          45.000  
G23  21639676.075   113717278.539       -1595.352          44.000    21639673.573    88610868.498       -1243.196          42.000  
G24  21903809.182   115105312.912       -2676.310          45.000    21903811.916    89692457.981       -2085.443          43.000  
G27  24703559.400   129818088.048       -1777.837          41.000    24703560.419   101156948.179       -1385.141          37.000  
G29  23496572.264   123475320.321        3389.500          41.000    23496576.659    96214527.170        2641.229          39.000  
R 2  23884845.976   127454139.498        3282.057          39.000    23884852.034    99130996.702        2552.681          38.000  
R 3  20272530.333   108520437.996        1944.306          49.000    20272530.530    84404782.490        1512.363          48.000  
R 4  20188688.359   108109512.511        -946.127          50.000    20188690.110    84085177.493        -735.737          48.000  
R 5  23616896.224   126245846.908       -2912.935          43.000    23616905.767    98191265.754       -2265.431          39.000  
R12  23882812.821   127577712.218        -496.399          42.000    23882819.915    99227105.413        -386.082          40.000  
R17  22682970.292   121381190.884        4363.088          45.000    22682984.176    94407572.436        3393.650          43.000  
R18  19527602.519   104239667.999        1865.667          49.000    19527604.324    81075291.808        1451.163          46.000  
R19  19943210.530   106682724.957       -1896.310          37.000    19943215.444    82975480.461       -1474.865          43.000  
E 3  24515549.170   128830105.647       -1700.707          45.000    24515550.582    98713962.338       -1303.221          43.000  
E 5  23417318.769   123058836.260         792.708          46.000    23417319.484    94291835.756         607.406          44.000  
E 9  26831945.069   141002842.985        2564.632          39.000    26831948.804   108041143.282        1965.079          40.000  
E15  25617180.815   134619194.858       -2360.178          45.000    25617184.175   103149781.349       -1808.448          41.000  
C14  25249789.772   131482281.173        2405.370          37.000    25249785.198   101670439.913        1859.646          41.000  
C24  25631799.588   133471506.436        -858.090          40.000                                                                  
C25  25511482.435   132845015.741       -2471.366          42.000                                                                  
C27  22506289.041   117196155.665        -450.707          46.000                                                                  
C28  22718941.314   118303473.192        2320.054          48.000                                                                  
C30  25831243.169   134510063.980       -2660.797          43.000                                                                  
C32  25225185.503   131354107.466       -2101.596          41.000                                                                  
> 2023  8  2 19 30 59.0000000  0 28                     
G 5  23657021.616   124318490.058        2444.787          41.000    23657020.812    96871552.688        1904.890          38.000  
G10  24368260.925   128056082.037       -2328.601          44.000    24368261.801    99783926.387       -1814.562          38.000  
G13  22485014.539   118159561.642        3173.163          41.000                                                                  
G15  20291760.225   106633919.027        1641.086          45.000    20291757.348    83091364.648        1278.745          42.000  
G18  20497452.711   107714844.651       -1174.027          46.000    20497449.226    83933646.790        -914.804          44.000  
G23  21639615.249   113716959.148       -1595.564          44.000    21639612.676    88610619.615       -1243.336          42.000  
G24  21903707.329   115104777.375       -2676.226          46.000    21903709.955    89692040.693       -2085.287          42.000  
G27  24703491.676   129817732.220       -1777.832          41.000    24703492.641   101156670.906       -1385.247          37.000  
G29  23496701.135   123475997.932        3389.400          41.000    23496705.745    96215055.154        2641.135          38.000  
R 2  23884969.094   127454795.625        3281.895          39.000    23884974.883    99131507.006        2552.502          38.000  
R 3  20272602.935   108520826.562        1944.266          49.000    20272603.060    84405084.696        1512.224          48.000  
R 4  20188653.032   108109322.986        -946.216          50.000    20188654.747    84085030.068        -735.927          48.000  
R 5  23616787.188   126245264.032       -2912.940          43.000    23616796.497    98190812.376       -2265.750          39.000  
R12  23882794.309   127577612.661        -496.158          42.000    23882801.313    99227027.974        -385.942          40.000  
R17  22683133.650   121382063.235        4363.250          45.000    22683147.088    94408250.918        3393.628          43.000  
R18  19527672.387   104240040.846        1865.761          49.000    19527674.138    81075581.779        1451.062          46.000  
R19  19943139.429   106682345.368       -1896.433          37.000    19943144.575    82975185.219       -1475.016          43.000  
E 3  24515484.413   128829765.239       -1700.511          45.000    24515485.807    98713701.524       -1303.059          43.000  
E 5  23417348.860   123058994.539         792.853          46.000    23417349.611    94291957.032         607.456          44.000  
E 9  26832042.634   141003355.624        2564.609          39.000    26832046.386   108041536.101        1965.062          40.000  
E15  25617090.899   134618722.535       -2360.178          45.000    25617094.329   103149419.439       -1808.599          41.000  
C14  25249882.173   131482761.914        2405.158          37.000    25249877.527   101670811.686        1859.819          41.000  
C24  25631766.656   133471334.557        -857.894          40.000                                                                  
C25  25511387.515   132844521.208       -2471.176          42.000                                                                  
C27  22506271.672   117196065.234        -450.724          46.000                                                                  
C28  22719030.391   118303936.929        2320.121          48.000                                                                  
C30  25831140.976   134509531.552       -2660.819          43.000                                                                  
C32  25225104.682   131353686.886       -2101.557          41.000                                                                  
> 2023  8  2 19 30 59.2000000  0 28                     
G 5  23657114.642   124318978.688        2444.994          41.000    23657113.802    96871933.430        1905.125          37.000  
G10  24368172.277   128055615.903       -2328.897          44.000    24368173.135    99783563.161       -1814.758          38.000  
G13  22485135.262   118160195.923        3173.270          41.000                                                                  
G15  20291822.552   106634246.887        1641.080          45.000    20291819.675    83091620.114        1278.639          42.000  
G18  20497407.949   107714609.455       -1174.245          46.000    20497404.393    83933463.518        -915.117          44.000  
G23  21639554.369   113716639.654       -1595.771          44.000    21639551.939    88610370.658       -1243.509          42.000  
G24  21903605.422   115104241.797       -2676.053          46.000    21903607.977    89691623.348       -2085.276          42.000  
G27  24703423.899   129817376.289       -1777.848          41.000    24703424.793   101156393.537       -1385.420          37.000  
G29  23496830.060   123476675.458        3389.321          41.000    23496834.974    96215583.085        2641.112          38.000  
R 2  23885092.140   127455451.671        3282.169          39.000    23885097.965    99132017.246        2552.496          38.000  
R 3  20272675.572   108521215.044        1944.199          49.000    20272675.608    84405386.837        1512.140          48.000  
R 4  20188617.633   108109133.357        -946.401          50.000    20188619.331    84084882.570        -736.100          48.000  
R 5  23616678.222   126244681.055       -2913.214          43.000    23616687.157    98190358.933       -2265.828          39.000  
R12  23882775.796   127577513.082        -496.041          42.000    23882782.497    99226950.487        -385.936          40.000  
R17  22683297.045   121382935.517        4363.301          45.000    22683309.857    94408929.348        3393.628          43.000  
R18  19527742.255   104240413.611        1865.683          49.000    19527743.970    81075871.708        1451.051          46.000  
R19  19943068.507   106681965.714       -1896.540          37.000    19943073.707    82974889.909       -1475.161          43.000  
E 3  24515419.674   128829424.717       -1700.718          45.000    24515421.014    98713440.600       -1303.299          43.000  
E 5  23417378.970   123059152.720         792.747          46.000    23417379.702    94292078.234         607.244          44.000  
E 9  26832140.217   141003868.208        2564.693          39.000    26832143.969   108041928.860        1965.101          40.000  
E15  25617001.035   134618250.086       -2360.446          45.000    25617004.430   103149057.444       -1808.728          41.000  
C14  25249974.466   131483242.543        2404.940          37.000    25249969.803   101671183.384        1859.998          41.000  
C24  25631733.705   133471162.606        -857.783          40.000                                                                  
C25  25511292.577   132844026.605       -2471.188          42.000                                                                  
C27  22506254.250   117195974.686        -451.054          46.000                                                                  
C28  22719119.450   118304400.567        2319.965          48.000                                                                  
C30  25831038.730   134508999.000       -2660.976          43.000                                                                  
C32  25225023.842   131353266.184       -2101.830          41.000                                                                  
> 2023  8  2 19 30 59.4000000  0 28                     
G 5  23657207.632   124319467.414        2445.357          41.000    23657206.203    96872314.274        1905.527          37.000  
G10  24368083.611   128055149.845       -2328.646          44.000    24368084.594    99783199.999       -1814.574          38.000  
G13  22485256.003   118160830.301        3173.671          41.000                                                                  
G15  20291884.879   106634574.838        1641.465          45.000    20291882.253    83091875.688        1279.109          42.000  
G18  20497363.187   107714374.364       -1173.787          46.000    20497359.613    83933280.338        -914.631          44.000  
G23  21639493.507   113716320.225       -1595.547          44.000    21639491.238    88610121.771       -1243.230          42.000  
G24  21903503.550   115103706.316       -2675.723          46.000    21903505.945    89691206.111       -2084.840          42.000  
G27  24703356.140   129817020.463       -1777.440          41.000    24703357.069   101156116.286       -1384.945          37.000  
G29  23496958.985   123477353.054        3389.601          41.000    23496963.953    96216111.089        2641.229          38.000  
R 2  23885214.936   127456107.825        3282.493          39.000    23885220.940    99132527.611        2553.267          38.000  
R 3  20272748.156   108521603.615        1944.568          49.000    20272748.228    84405689.090        1512.570          48.000  
R 4  20188582.324   108108943.808        -946.088          50.000    20188583.986    84084735.164        -735.793          48.000  
R 5  23616569.221   126244098.161       -2912.862          43.000    23616577.924    98189905.610       -2265.425          39.000  
R12  23882757.338   127577413.617        -495.477          41.000    23882763.914    99226873.158        -385.299          40.000  
R17  22683460.403   121383807.895        4363.591          46.000    22683472.626    94409607.897        3394.064          43.000  
R18  19527812.176   104240786.505        1866.192          49.000    19527813.749    81076161.752        1451.509          46.000  
R19  19942997.459   106681586.158       -1896.048          37.000    19943002.677    82974594.724       -1474.613          43.000  
E 3  24515354.916   128829084.274       -1700.768          45.000    24515356.221    98713179.723       -1303.187          43.000  
E 5  23417409.079   123059310.992         792.853          46.000    23417409.829    94292199.507         607.607          44.000  
E 9  26832237.764   141004380.868        2564.900          39.000    26832241.534   108042321.664        1965.375          40.000  
E15  25616911.154   134617777.725       -2360.351          45.000    25616914.531   103148695.512       -1808.448          41.000  
C14  25250066.813   131483723.357        2405.594          37.000    25250062.060   101671555.137        1860.160          41.000  
C24  25631700.701   133470990.804        -857.297          40.000                                                                  
C25  25511197.639   132843532.135       -2470.735          42.000                                                                  
C27  22506236.845   117195884.234        -450.634          46.000                                                                  
C28  22719208.527   118304864.325        2320.417          48.000                                                                  
C30  25830936.501   134508466.566       -2660.590          43.000                                                                  
C32  25224943.021   131352845.578       -2101.456          41.000                                                                  
> 2023  8  2 19 30 59.6000000  0 28                     
G 5  23657300.623   124319956.085        2445.094          41.000    23657299.122    96872695.072        1905.365          38.000  
G10  24367994.945   128054683.708       -2328.802          44.000    24367995.803    99782836.791       -1814.652          38.000  
G13  22485376.744   118161464.608        3173.482          41.000                                                                  
G15  20291947.260   106634902.751        1641.493          45.000    20291944.633    83092131.186        1279.014          43.000  
G18  20497318.443   107714139.218       -1173.748          46.000    20497314.940    83933097.107        -914.592          45.000  
G23  21639432.681   113716000.754       -1595.413          44.000    21639430.501    88609872.823       -1243.263          42.000  
G24  21903401.679   115103170.773       -2675.863          46.000    21903403.877    89690788.787       -2085.136          43.000  
G27  24703288.327   129816664.576       -1777.513          41.000    24703289.649   101155838.962       -1385.085          37.000  
G29  23497087.928   123478030.557        3389.360          41.000    23497093.003    96216639.004        2641.006          39.000  
R 2  23885337.768   127456763.922        3282.454          39.000    23885343.986    99133037.880        2552.899          39.000  
R 3  20272820.651   108521992.139        1944.596          49.000    20272820.865    84405991.264        1512.447          48.000  
R 4  20188546.926   108108754.212        -946.021          50.000    20188548.695    84084587.702        -735.743          48.000  
R 5  23616460.238   126243515.174       -2913.013          43.000    23616468.762    98189452.167       -2265.655          39.000  
R12  23882738.700   127577314.110        -495.616          41.000    23882745.383    99226795.776        -385.305          40.000  
R17  22683623.726   121384680.169        4363.245          46.000    22683635.448    94410286.341        3393.650          44.000  
R18  19527882.080   104241159.331        1866.113          49.000    19527883.652    81076451.730        1451.403          46.000  
R19  19942926.484   106681206.551       -1895.936          37.000    19942931.826    82974299.488       -1474.563          43.000  
E 3  24515290.141   128828743.751       -1700.763          45.000    24515291.446    98712918.819       -1303.142          43.000  
E 5  23417439.170   123059469.203         792.960          46.000    23417439.939    94292320.736         607.652          44.000  
E 9  26832335.346   141004893.475        2564.933          39.000    26832339.134   108042714.448        1965.380          40.000  
E15  25616821.237   134617305.311       -2360.173          45.000    25616824.632   103148333.510       -1808.487          41.000  
C14  25250159.107   131484204.064        2405.426          37.000    25250154.318   101671926.835        1859.964          41.000  
C24  25631667.679   133470818.925        -857.548          40.000                                                                  
C25  25511102.647   132843037.538       -2471.176          42.000                                                                  
C27  22506219.459   117195793.741        -450.512          46.000                                                                  
C28  22719297.569   118305327.990        2320.249          48.000                                                                  
C30  25830834.254   134507934.058       -2660.624          43.000                                                                  
C32  25224862.217   131352424.858       -2101.702          41.000                                                                  
> 2023  8  2 19 30 59.8000000  0 28                     
G 5  23657393.595   124320444.800        2445.334          41.000    23657391.951    96873075.882        1905.393          38.000  
G10  24367906.297   128054217.677       -2328.455          44.000    24367907.083    99782473.624       -1814.540          39.000  
G13  22485497.521   118162099.033        3173.739          41.000                                                                  
G15  20292009.641   106635230.752        1641.689          45.000    20292007.246    83092386.783        1279.259          43.000  
G18  20497273.699   107713904.181       -1173.485          46.000    20497270.214    83932913.958        -914.436          45.000  
G23  21639371.855   113715681.360       -1595.229          44.000    21639369.782    88609623.954       -1243.040          42.000  
G24  21903299.826   115102635.301       -2675.673          46.000    21903301.916    89690371.526       -2085.030          43.000  
G27  24703220.532   129816308.813       -1777.071          41.000    24703221.890   101155561.769       -1384.610          37.000  
G29  23497216.906   123478708.153        3389.573          41.000    23497221.803    96217166.980        2641.028          39.000  
R 2  23885460.510   127457420.019        3282.309          40.000    23885467.032    99133548.213        2552.921          39.000  
R 3  20272893.235   108522380.750        1944.735          49.000    20272893.378    84406293.514        1512.615          48.000  
R 4  20188511.545   108108564.717        -945.686          50.000    20188513.368    84084440.304        -735.648          48.000  
R 5  23616351.130   126242932.289       -2912.723          43.000    23616359.528    98188998.798       -2265.475          40.000  
R12  23882720.224   127577214.726        -495.186          42.000    23882726.925    99226718.467        -385.160          40.000  
R17  22683787.049   121385552.538        4363.462          46.000    22683798.360    94410964.832        3393.762          44.000  
R18  19527952.019   104241532.275        1866.454          49.000    19527953.520    81076741.791        1451.627          46.000  
R19  19942855.615   106680827.064       -1895.780          37.000    19942860.797    82974004.336       -1474.306          44.000  
E 3  24515225.366   128828403.338       -1700.422          45.000    24515226.688    98712657.987       -1302.942          43.000  
E 5  23417469.297   123059627.523         793.290          46.000    23417470.066    94292442.050         607.820          44.000  
E 9  26832432.929   141005406.170        2565.090          39.000    26832436.699   108043107.281        1965.319          40.000  
E15  25616731.374   134616833.003       -2359.792          44.000    25616734.787   103147971.611       -1808.197          41.000  
C14  25250251.454   131484684.844        2405.639          37.000    25250246.629   101672298.604        1860.070          41.000  
C24  25631634.747   133470647.151        -857.241          40.000                                                                  
C25  25511007.709   132842543.048       -2470.902          42.000                                                                  
C27  22506202.054   117195703.350        -450.227          46.000                                                                  
C28  22719386.628   118305791.741        2320.395          47.000                                                                  
C30  25830731.990   134507401.668       -2660.210          43.000                                                                  
C32  25224781.395   131352004.252       -2101.316          41.000                                                                  
> 2023  8  2 19 31  0.0000000  0 28                     
G 5  23657486.514   124320933.274        2444.787          41.000    23657484.817    96873456.520        1905.097          38.000  
G10  24367817.595   128053751.369       -2328.953          44.000    24367818.506    99782110.293       -1814.663          39.000  
G13  22485618.262   118162733.197        3173.348          41.000    22485614.706    92074848.0551       2472.742          31.000  
G15  20292071.932   106635558.539        1641.499          45.000    20292069.645    83092642.196        1279.131          43.000  
G18  20497228.972   107713668.914       -1173.714          46.000    20497225.542    83932730.625        -914.659          45.000  
G23  21639310.975   113715361.740       -1595.514          44.000    21639308.938    88609374.890       -1243.313          43.000  
G24  21903197.883   115102099.582       -2675.980          46.000    21903199.866    89689954.090       -2085.169          43.000  
G27  24703152.755   129815952.841       -1777.256          41.000    24703154.202   101155284.352       -1384.900          38.000  
G29  23497345.831   123479385.480        3389.266          41.000    23497350.531    96217694.781        2641.045          39.000  
R 2  23885583.449   127458075.916        3282.001          40.000    23885589.971    99134058.350        2552.681          39.000  
R 3  20272965.730   108522769.133        1944.439          49.000    20272965.980    84406595.583        1512.403          48.000  
R 4  20188476.147   108108374.986        -945.965          50.000    20188478.005    84084292.735        -735.804          48.000  
R 5  23616242.093   126242349.160       -2912.996          43.000    23616250.527    98188545.269       -2265.615          40.000  
R12  23882701.783   127577115.090        -495.527          42.000    23882708.180    99226640.973        -385.378          40.000  
R17  22683950.318   121386424.644        4363.133          47.000    22683961.201    94411643.157        3393.667          44.000  
R18  19528022.048   104241904.981        1866.197          49.000    19528023.334    81077031.685        1451.531          46.000  
R19  19942784.729   106680447.385       -1895.741          37.000    19942789.875    82973709.014       -1474.462          44.000  
E 3  24515160.537   128828062.687       -1700.539          45.000    24515161.859    98712396.955       -1303.204          43.000  
E 5  23417499.371   123059785.592         793.088          46.000    23417500.157    94292563.162         607.551          44.000  
E 9  26832530.422   141005918.604        2564.805          39.000    26832534.211   108043499.923        1965.207          40.000  
E15  25616641.475   134616360.434       -2360.044          44.000    25616644.852   103147609.535       -1808.421          41.000  
C14  25250343.801   131485165.333        2404.957          37.000    25250338.834   101672670.176        1859.763          41.000  
C24  25631601.760   133470475.125        -857.576          40.000                                                                  
C25  25510912.717   132842048.259       -2471.361          42.000                                                                  
C27  22506184.650   117195612.732        -450.489          46.000                                                                  
C28  22719475.580   118306255.263        2320.193          47.000                                                                  
C30  25830629.672   134506869.045       -2660.507          43.000                                                                  
C32  25224700.556   131351583.390       -2101.730          41.000                                                                  
> 2023  8  2 19 31  0.2000000  0 28                     
G 5  23657579.469   124321421.889        2444.988          41.000    23657577.843    96873837.257        1905.131          38.000  
G10  24367728.947   128053285.256       -2328.623          44.000    24367730.037    99781747.081       -1814.618          39.000  
G13  22485738.949   118163367.525        3173.622          41.000                                                                  
G15  20292134.277   106635886.478        1641.717          45.000    20292132.062    83092897.715        1279.170          43.000  
G18  20497184.228   107713433.815       -1173.468          46.000    20497180.869    83932547.435        -914.452          45.000  
G23  21639250.185   113715042.261       -1595.397          44.000    21639248.022    88609125.955       -1243.151          43.000  
G24  21903095.976   115101564.025       -2675.802          46.000    21903097.691    89689536.768       -2085.035          43.000  
G27  24703084.995   129815597.042       -1777.032          41.000    24703086.335   101155007.092       -1384.828          38.000  
G29  23497474.810   123480062.968        3389.472          42.000    23497479.259    96218222.702        2641.140          39.000  
R 2  23885706.388   127458731.968        3282.202          40.000    23885712.838    99134568.590        2552.932          39.000  
R 3  20273038.260   108523157.666        1944.702          49.000    20273038.635    84406897.766        1512.503          48.000  
R 4  20188440.837   108108185.441        -945.691          50.000    20188442.714    84084145.297        -735.609          48.000  
R 5  23616133.092   126241766.215       -2912.616          43.000    23616141.330    98188091.852       -2265.375          40.000  
R12  23882683.271   127577015.634        -495.253          42.000    23882689.507    99226563.637        -385.048          40.000  
R17  22684113.641   121387296.923        4363.407          47.000    22684124.112    94412321.587        3393.723          44.000  
R18  19528091.916   104242277.881        1866.544          49.000    19528093.149    81077321.716        1451.738          46.000  
R19  19942713.592   106680067.868       -1895.584          37.000    19942718.792    82973413.839       -1474.323          44.000  
E 3  24515095.726   128827722.185       -1700.611          45.000    24515097.066    98712136.069       -1302.902          43.000  
E 5  23417529.498   123059943.809         792.982          46.000    23417530.249    94292684.395         607.713          44.000  
E 9  26832627.987   141006431.179        2564.709          39.000    26832631.758   108043892.697        1965.453          40.000  
E15  25616551.611   134615888.037       -2360.156          44.000    25616554.953   103147247.567       -1808.348          41.000  
C14  25250436.148   131485646.023        2405.248          37.000    25250431.056   101673041.846        1859.769          41.000  
C24  25631568.792   133470303.261        -857.330          40.000                                                                  
C25  25510817.761   132841553.615       -2471.215          42.000                                                                  
C27  22506167.245   117195522.306        -450.137          46.000                                                                  
C28  22719564.586   118306718.948        2320.428          47.000                                                                  
C30  25830527.354   134506336.598       -2660.266          43.000                                                                  
C32  25224619.734   131351162.719       -2101.428          41.000                                                                  
> 2023  8  2 19 31  0.4000000  0 28                     
G 5  23657672.334   124321910.457        2445.055          41.000    23657670.958    96874217.957        1905.281          39.000  
G10  24367640.298   128052819.162       -2328.020          44.000    24367641.514    99781383.889       -1814.115          39.000  
G13  22485859.762   118164001.791        3173.660          41.000    22485855.920    92075836.5631       2472.982          31.000  
G15  20292196.658   106636214.347        1641.695          45.000    20292194.478    83093153.223        1279.276          43.000  
G18  20497139.502   107713198.689       -1173.329          46.000    20497136.143    83932364.220        -914.346          45.000  
G23  21639189.358   113714722.761       -1595.206          44.000    21639187.232    88608877.005       -1242.950          43.000  
G24  21902994.051   115101028.432       -2675.701          46.000    21902995.838    89689119.414       -2085.058          43.000  
G27  24703017.254   129815241.257       -1776.463          40.000    24703018.308   101154729.855       -1384.386          38.000  
G29  23497603.717   123480740.447        3389.640          42.000    23497608.310    96218750.620        2641.358          39.000  
R 2  23885829.434   127459387.931        3282.197          40.000    23885835.724    99135078.790        2552.737          39.000  
R 3  20273110.755   108523546.148        1944.725          48.000    20273111.219    84407199.930        1512.548          48.000  
R 4  20188405.475   108107995.886        -945.333          50.000    20188407.387    84083997.889        -735.307          48.000  
R 5  23616024.020   126241183.294       -2912.074          43.000    23616032.347    98187638.471       -2265.085          40.000  
R12  23882664.723   127576916.187        -494.828          42.000    23882670.905    99226486.282        -385.042          40.000  
R17  22684276.964   121388169.182        4363.675          47.000    22684286.971    94413000.008        3393.818          44.000  
R18  19528161.801   104242650.754        1866.717          49.000    19528163.016    81077611.724        1451.805          46.000  
R19  19942642.759   106679688.366       -1895.070          37.000    19942647.763    82973118.668       -1474.038          44.000  
E 3  24515030.862   128827381.677       -1700.354          45.000    24515032.255    98711875.147       -1302.746          43.000  
E 5  23417559.590   123060101.982         793.032          46.000    23417560.358    94292805.586         607.680          44.000  
E 9  26832725.498   141006943.707        2564.872          39.000    26832729.340   108044285.391        1965.291          40.000  
E15  25616461.730   134615415.638       -2359.826          44.000    25616465.072   103146885.599       -1808.018          41.000  
C14  25250528.513   131486126.607        2405.192          37.000    25250523.349   101673413.485        1859.959          42.000  
C24  25631535.841   133470131.374        -857.168          41.000                                                                  
C25  25510722.770   132841058.927       -2471.266          42.000                                                                  
C27  22506149.895   117195431.851        -449.903          46.000                                                                  
C28  22719653.591   118307182.598        2320.551          47.000                                                                  
C30  25830425.054   134505804.135       -2659.842          42.000                                                                  
C32  25224538.931   131350742.061       -2100.964          41.000                                                                  
> 2023  8  2 19 31  0.6000000  0 28                     
G 5  23657765.307   124322398.799        2444.155          41.000    23657763.895    96874598.490        1904.611          39.000  
G10  24367551.614   128052352.978       -2328.103          44.000    24367552.847    99781020.633       -1814.093          39.000  
G13  22485980.521   118164635.890        3172.962          41.000                                                                  
G15  20292259.021   106636542.075        1641.208          45.000    20292256.912    83093408.604        1278.863          43.000  
G18  20497094.758   107712963.452       -1173.507          46.000    20497091.417    83932180.905        -914.581          45.000  
G23  21639128.532   113714403.185       -1595.240          44.000    21639126.245    88608627.973       -1243.073          43.000  
G24  21902892.019   115100492.640       -2676.511          45.000    21902893.752    89688701.948       -2085.360          43.000  
G27  24702949.530   129814885.417       -1776.490          40.000    24702950.406   101154452.593       -1384.202          37.000  
G29  23497732.517   123481417.788        3389.383          41.000    23497737.199    96219278.434        2641.157          40.000  
R 2  23885952.533   127460043.682        3281.191          40.000    23885958.645    99135588.805        2552.072          39.000  
R 3  20273183.321   108523934.474        1944.283          49.000    20273183.785    84407501.978        1512.325          48.000  
R 4  20188370.040   108107806.218        -945.484          50.000    20188372.059    84083850.395        -735.251          48.000  
R 5  23615915.001   126240600.308       -2912.103          43.000    23615923.220    98187185.012       -2265.129          39.000  
R12  23882646.049   127576816.543        -495.555          42.000    23882652.214    99226408.793        -385.467          40.000  
R17  22684440.126   121389041.294        4363.273          46.000    22684449.865    94413678.295        3393.516          44.000  
R18  19528231.687   104243023.517        1866.488          49.000    19528232.884    81077901.643        1451.705          46.000  
R19  19942572.069   106679308.753       -1895.204          37.000    19942576.858    82972823.412       -1474.144          43.000  
E 3  24514965.890   128827041.044       -1700.360          45.000    24514967.480    98711614.153       -1302.913          43.000  
E 5  23417589.663   123060260.008         792.853          46.000    23417590.449    94292926.650         607.289          44.000  
E 9  26832822.938   141007456.026        2564.324          39.000    26832826.905   108044677.947        1964.665          40.000  
E15  25616371.849   134614943.142       -2359.647          44.000    25616375.137   103146523.541       -1808.219          41.000  
C14  25250620.825   131486607.035        2404.605          38.000    25250615.607   101673784.949        1859.126          42.000  
C24  25631502.891   133469959.248        -858.140          41.000                                                                  
C25  25510627.760   132840564.059       -2472.003          42.000                                                                  
C27  22506132.526   117195341.318        -449.930          46.000                                                                  
C28  22719742.615   118307646.138        2320.294          47.000                                                                  
C30  25830322.789   134505271.612       -2659.853          42.000                                                                  
C32  25224458.163   131350321.315       -2100.942          41.000                                                                  
> 2023  8  2 19 31  0.8000000  0 28                     
G 5  23657858.297   124322887.253        2443.111          41.000    23657857.028    96874979.113        1903.812          39.000  
G10  24367463.020   128051887.196       -2327.489          44.000    24367464.181    99780657.686       -1813.534          39.000  
G13  22486101.190   118165270.163        3172.281          41.000                                                                  
G15  20292321.491   106636870.047        1641.024          45.000    20292319.436    83093664.173        1278.661          43.000  
G18  20497050.050   107712728.511       -1173.351          46.000    20497046.601    83931997.832        -914.357          45.000  
G23  21639067.813   113714083.920       -1594.955          44.000    21639065.258    88608379.204       -1242.788          42.000  
G24  21902789.987   115099957.074       -2676.869          45.000    21902791.523    89688284.605       -2085.885          42.000  
G27  24702881.860   129814529.974       -1775.831          40.000    24702882.772   101154175.599       -1383.873          37.000  
G29  23497861.335   123482095.405        3389.372          41.000    23497865.927    96219806.452        2641.056          40.000  
R 2  23886075.705   127460699.624        3280.470          41.000    23886081.548    99136099.019        2551.725          39.000  
R 3  20273255.976   108524323.061        1944.121          49.000    20273256.369    84407804.205        1512.067          48.000  
R 4  20188334.535   108107616.941        -944.926          50.000    20188336.750    84083703.173        -734.961          48.000  
R 5  23615806.000   126240017.715       -2911.409          43.000    23615814.112    98186731.900       -2264.369          38.000  
R12  23882627.466   127576717.099        -496.298          42.000    23882633.630    99226331.436        -385.836          40.000  
R17  22684603.074   121389913.600        4362.568          46.000    22684612.759    94414356.741        3393.108          44.000  
R18  19528301.573   104243396.569        1866.588          49.000    19528302.824    81078191.795        1451.744          46.000  
R19  19942501.397   106678929.502       -1894.813          37.000    19942505.918    82972528.420       -1473.842          43.000  
E 3  24514900.989   128826700.765       -1700.092          45.000    24514902.723    98711353.427       -1302.550          43.000  
E 5  23417619.790   123060418.289         792.585          46.000    23417620.559    94293047.942         607.294          44.000  
E 9  26832920.467   141007968.527        2563.536          39.000    26832924.434   108045070.623        1964.118          40.000  
E15  25616281.986   134614470.998       -2359.356          44.000    25616285.274   103146161.768       -1807.845          41.000  
C14  25250713.118   131487087.574        2403.610          38.000    25250707.900   101674156.522        1858.556          42.000  
C24  25631469.887   133469787.323        -858.884          41.000                                                                  
C25  25510532.697   132840069.340       -2472.690          42.000                                                                  
C27  22506115.211   117195251.154        -449.400          46.000                                                                  
